[
    {"no": "005", "title": "Acteopan", "region": "V. ATLIXCO Y MATAMOROS", "lat": "18.7647348996979",  "long": "-98.7151761840565"},
    {"no": "006", "title": "Ahuacatlán", "region": "S. NORTE - ZACATLÁN", "lat": "20.0057435939013",  "long": "-97.860585608978"},
    {"no": "010", "title": "Ajalpan", "region": "S. NEGRA", "lat": "18.3775358210868",  "long": "-97.2576656991768"},
    {"no": "013", "title": "Altepexi", "region": "TEHUACAN", "lat": "18.3663618725887",  "long": "-97.2990244415036"},
    {"no": "014", "title": "Amixtlán", "region": "S. NORTE - ZACATLÁN", "lat": "20.0495253990962",  "long": "-97.7989080814345"},
    {"no": "017", "title": "Atempan", "region": "S. NORORIENTAL", "lat": "19.8399431459792",  "long": "-97.4594155237423"},
    {"no": "025", "title": "Ayotoxco de Guerrero", "region": "S. NORORIENTAL", "lat": "20.0976071404916",  "long": "-97.4111377441807"},
    {"no": "028", "title": "Camocuautla", "region": "S. NORTE - ZACATLÁN", "lat": "20.0385687838264",  "long": "-97.7577322522769"},
    {"no": "029", "title": "Caxhuacan", "region": "S. NORORIENTAL", "lat": "20.0644049851122",  "long": "-97.606483538556"},
    {"no": "030", "title": "Coatepec", "region": "S. NORTE - ZACATLÁN", "lat": "20.0620792514928",  "long": "-97.7324441042102"},
    {"no": "035", "title": "Coxcatlán", "region": "S. NEGRA", "lat": "18.2666018186406",  "long": "-97.1471436709911"},
    {"no": "036", "title": "Coyomeapan", "region": "S. NEGRA", "lat": "18.2837063122441",  "long": "-96.9924544035195"},
    {"no": "039", "title": "Cuautempan", "region": "S. NORTE - ZACATLÁN", "lat": "19.915201889564",  "long": "-97.7949710982361"},
    {"no": "043", "title": "Cuetzalan del Progreso", "region": "S. NORORIENTAL", "lat": "20.0185481547279",  "long": "-97.5207673180611"},
    {"no": "049", "title": "Chiconcuautla", "region": "S. NORTE - XICOTEPEC", "lat": "20.0947251815988",  "long": "-97.9396768291799"},
    {"no": "050", "title": "Chichiquila", "region": "V. SERDÁN", "lat": "19.2000657343449",  "long": "-97.0675314230985"},
    {"no": "052", "title": "Chigmecatitlán", "region": "MIXTECA", "lat": "18.6458708476736",  "long": "-98.0759460264137"},
    {"no": "061", "title": "Eloxochitlán", "region": "S. NEGRA", "lat": "18.4989366255073",  "long": "-96.9547122694591"},
    {"no": "068", "title": "Hermenegildo Galeana", "region": "S. NORTE - ZACATLÁN", "lat": "20.1216925687395",  "long": "-97.7440715999383"},
    {"no": "070", "title": "Huatlatlauca", "region": "MIXTECA", "lat": "18.6778591830762",  "long": "-98.0513598676365"},
    {"no": "072", "title": "Huehuetla", "region": "S. NORORIENTAL", "lat": "20.104387471755",  "long": "-97.6248133653837"},
    {"no": "075", "title": "Hueyapan", "region": "S. NORORIENTAL", "lat": "19.8825549999552",  "long": "-97.4454630930775"},
    {"no": "077", "title": "Hueytlalpan", "region": "S. NORORIENTAL", "lat": "20.0260855995797",  "long": "-97.6985495279172"},
    {"no": "078", "title": "Huitzilan de Serdán", "region": "S. NORTE - ZACATLÁN", "lat": "19.9674664870137",  "long": "-97.6937140929178"},
    {"no": "080", "title": "Atlequizayan", "region": "S. NORORIENTAL", "lat": "20.013670765408",  "long": "-97.6239808622938"},
    {"no": "084", "title": "Ixtepec", "region": "S. NORORIENTAL", "lat": "20.0248922091909",  "long": "-97.6469457498042"},
    {"no": "088", "title": "Jonotla", "region": "S. NORORIENTAL", "lat": "20.0304329423225",  "long": "-97.5746499645354"},
    {"no": "089", "title": "Jopala", "region": "S. NORTE - XICOTEPEC", "lat": "20.1630017628315",  "long": "-97.6927461469974"},
    {"no": "100", "title": "Naupan", "region": "S. NORTE - XICOTEPEC", "lat": "20.2285434673771",  "long": "-98.109576375067"},
    {"no": "107", "title": "Olintla", "region": "S. NORORIENTAL", "lat": "20.1017111168389",  "long": "-97.6847279241535"},
    {"no": "109", "title": "Pahuatlán", "region": "S. NORTE - XICOTEPEC", "lat": "20.2756858135548",  "long": "-98.1499732517834"},
    {"no": "111", "title": "Pantepec", "region": "S. NORTE - XICOTEPEC", "lat": "20.5214749859047",  "long": "-97.9388397599365"},
    {"no": "120", "title": "San Antonio Cañada", "region": "TEHUACAN", "lat": "18.4972840797009",  "long": "-97.290191766694"},
    {"no": "123", "title": "San Felipe Tepatlán", "region": "S. NORTE - ZACATLÁN", "lat": "20.0908771685699",  "long": "-97.7964673571632"},
    {"no": "124", "title": "San Gabriel Chilac", "region": "TEHUACAN", "lat": "18.3261836520927",  "long": "-97.3478238454217"},
    {"no": "127", "title": "San Jerónimo Xayacatlán", "region": "MIXTECA", "lat": "18.2214600271603",  "long": "-97.9143704761809"},
    {"no": "129", "title": "San José Miahuatlán", "region": "TEHUACAN", "lat": "18.5530126563722",  "long": "-97.4442363514587"},
    {"no": "145", "title": "San Sebastián Tlacotepec", "region": "S. NEGRA", "lat": "18.4050671231845",  "long": "-96.8505296150747"},
    {"no": "146", "title": "Santa Catarina Tlaltempan", "region": "MIXTECA", "lat": "18.6139472007864",  "long": "-98.0799154181524"},
    {"no": "159", "title": "Teopantlán", "region": "MIXTECA", "lat": "18.7148175215759",  "long": "-98.2645095020712"},
    {"no": "162", "title": "Tepango de Rodríguez", "region": "S. NORTE - ZACATLÁN", "lat": "20.002764618436",  "long": "-97.7962807950548"},
    {"no": "167", "title": "Tepetzintla", "region": "S. NORTE - ZACATLÁN", "lat": "19.9671829797119",  "long": "-97.8410282358066"},
    {"no": "183", "title": "Tlaola", "region": "S. NORTE - XICOTEPEC", "lat": "20.1371399915992",  "long": "-97.9242929744669"},
    {"no": "184", "title": "Tlapacoya", "region": "S. NORTE - XICOTEPEC", "lat": "20.1230248208991",  "long": "-97.8513045249474"},
    {"no": "192", "title": "Tuzamapan de Galeana", "region": "S. NORORIENTAL", "lat": "20.0654091720984",  "long": "-97.5753464410151"},
    {"no": "195", "title": "Vicente Guerrero", "region": "S. NEGRA", "lat": "18.5379398759496",  "long": "-97.2023936550772"},
    {"no": "196", "title": "Xayacatlán de Bravo", "region": "MIXTECA", "lat": "18.2352520846502",  "long": "-97.9754922836422"},
    {"no": "200", "title": "Xochiapulco", "region": "S. NORTE - ZACATLÁN", "lat": "19.8205627879706",  "long": "-97.658672449"},
    {"no": "202", "title": "Xochitlán de Vicente Suárez", "region": "S. NORTE - ZACATLÁN", "lat": "19.9687664762234",  "long": "-97.6290764916793"},
    {"no": "204", "title": "Yaonáhuac", "region": "S. NORORIENTAL", "lat": "19.8709065765292",  "long": "-97.4663581119285"},
    {"no": "207", "title": "Zacapoaxtla", "region": "S. NORORIENTAL", "lat": "19.8731072922424",  "long": "-97.5890138100434"},
    {"no": "210", "title": "Zapotitlán de Méndez", "region": "S. NORTE - ZACATLÁN", "lat": "20.0020997752424",  "long": "-97.7150602033315"},
    {"no": "212", "title": "Zautla", "region": "S. NORTE - ZACATLÁN", "lat": "19.7152310372233",  "long": "-97.6723046544014"},
    {"no": "213", "title": "Zihuateutla", "region": "S. NORTE - XICOTEPEC", "lat": "20.250054054028",  "long": "-97.8868629680157"},
    {"no": "214", "title": "Zinacatepec", "region": "TEHUACAN", "lat": "18.3333137733321",  "long": "-97.2453809693889"},
    {"no": "215", "title": "Zongozotla", "region": "S. NORTE - ZACATLÁN", "lat": "19.9785711225645",  "long": "-97.7267581907124"},
    {"no": "216", "title": "Zoquiapan", "region": "S. NORORIENTAL", "lat": "20.0098470204802",  "long": "-97.5957114666549"},
    {"no": "217", "title": "Zoquitlán", "region": "S. NEGRA", "lat": "18.3356131407037",  "long": "-97.0173232641961"}
]
